{
  "events": [
    {
      "id": 1,
      "title": "sed massa sed magna egestas",
      "address": {
        "streetAddress": "2125 Amet Rd",
        "city": "Hattiesburg",
        "state": "NV",
        "zip": "45018"
      },
      "location": "pulvinar vitae placerat",
      "phoneNumber": "5375215759",
      "contactFName": "Verna",
      "contactLName": "Wild",
      "contact": "{contactFName} {contactLName}",
      "date": "2016-10-07T04:27:25.356Z",
      "description": "dolor massa odio turpis convallis sed amet nec dolor nunc in dolor elementum adipiscing lorem adipiscing placerat amet scelerisque porta"
    },
    {
      "id": 2,
      "title": "libero pulvinar augue fringilla eget",
      "address": {
        "streetAddress": "9531 Eget St",
        "city": "Delray",
        "state": "MO",
        "zip": "50118"
      },
      "location": "at tortor ipsum",
      "phoneNumber": "1497727020",
      "contactFName": "Milada",
      "contactLName": "Favus",
      "contact": "{contactFName} {contactLName}",
      "date": "2033-12-30T21:08:19.005Z",
      "description": "vel vel lacus malesuada nec vestibulum quis quis fringilla lacus facilisis magna tincidunt mattis orci nunc sagittis tellus molestie amet"
    },
    {
      "id": 3,
      "title": "consequat convallis consequat tincidunt at",
      "address": {
        "streetAddress": "2756 Pharetra St",
        "city": "Blacksburg",
        "state": "DC",
        "zip": "98989"
      },
      "location": "placerat sit amet",
      "phoneNumber": "9001008735",
      "contactFName": "Byron",
      "contactLName": "Stacy",
      "contact": "{contactFName} {contactLName}",
      "date": "1998-02-05T03:18:57.176Z",
      "description": "sed egestas nec ipsum placerat turpis placerat magna magna molestie elit odio adipiscing et mattis aenean hendrerit malesuada placerat id"
    },
    {
      "id": 4,
      "title": "nec massa mattis risus donec",
      "address": {
        "streetAddress": "5365 Ipsum Dr",
        "city": "Seven Mile",
        "state": "NY",
        "zip": "48805"
      },
      "location": "elementum porta sollicitudin",
      "phoneNumber": "4223954050",
      "contactFName": "Lowell",
      "contactLName": "Rose",
      "contact": "{contactFName} {contactLName}",
      "date": "1941-03-18T08:36:16.534Z",
      "description": "turpis amet lacus turpis et at libero odio facilisis ac tortor libero vitae sit etiam tempor ac dolor nec vestibulum"
    },
    {
      "id": 5,
      "title": "tortor amet elit eget molestie",
      "address": {
        "streetAddress": "5400 Ac Dr",
        "city": "Lake Elsinore",
        "state": "AZ",
        "zip": "28586"
      },
      "location": "et eros lacus",
      "phoneNumber": "8057496871",
      "contactFName": "Mario",
      "contactLName": "Atheya",
      "contact": "{contactFName} {contactLName}",
      "date": "2027-12-02T16:15:25.727Z",
      "description": "sed massa porta porttitor ipsum vitae augue non elementum etiam tincidunt sollicitudin egestas morbi magna ac augue aenean eros sed"
    },
    {
      "id": 6,
      "title": "lacus nunc fringilla mi sollicitudin",
      "address": {
        "streetAddress": "7112 Sit Ln",
        "city": "Camas",
        "state": "NY",
        "zip": "81068"
      },
      "location": "risus sed at",
      "phoneNumber": "3224469330",
      "contactFName": "Hugh",
      "contactLName": "Vanatta",
      "contact": "{contactFName} {contactLName}",
      "date": "2040-03-01T14:32:07.753Z",
      "description": "vestibulum amet vitae quis dui libero mi amet curabitur ac ante massa tincidunt suspendisse placerat sit amet suspendisse non dolor"
    },
    {
      "id": 7,
      "title": "sed turpis lacus pharetra scelerisque",
      "address": {
        "streetAddress": "1386 Sapien Dr",
        "city": "Blaine",
        "state": "ME",
        "zip": "14292"
      },
      "location": "velit pretium lacus",
      "phoneNumber": "3067805875",
      "contactFName": "Kehinde",
      "contactLName": "Dauk",
      "contact": "{contactFName} {contactLName}",
      "date": "2046-05-11T19:14:21.039Z",
      "description": "massa quis magna aenean adipiscing nec sit massa etiam id vel massa dui tempor dolor donec vitae sed pulvinar tortor"
    },
    {
      "id": 8,
      "title": "elit facilisis etiam in vel",
      "address": {
        "streetAddress": "6767 Odio Ln",
        "city": "Canton",
        "state": "AZ",
        "zip": "46071"
      },
      "location": "sed lacus elementum",
      "phoneNumber": "8141389071",
      "contactFName": "Shaneka",
      "contactLName": "Tuggle",
      "contact": "{contactFName} {contactLName}",
      "date": "1910-04-12T16:24:06.197Z",
      "description": "sed in placerat nec vel molestie sollicitudin lorem eros turpis nec tortor sagittis dolor placerat placerat et sagittis non suspendisse"
    },
    {
      "id": 9,
      "title": "massa sapien morbi non massa",
      "address": {
        "streetAddress": "7197 Pharetra St",
        "city": "Montreal",
        "state": "IN",
        "zip": "60927"
      },
      "location": "adipiscing elit turpis",
      "phoneNumber": "4205058394",
      "contactFName": "Rosalinda",
      "contactLName": "Carson",
      "contact": "{contactFName} {contactLName}",
      "date": "2063-07-23T09:39:02.340Z",
      "description": "nunc hendrerit vestibulum mattis et lectus hendrerit amet sapien morbi mi sapien tellus sed pharetra aliquam donec ipsum tincidunt at"
    },
    {
      "id": 10,
      "title": "neque et odio facilisis elementum",
      "address": {
        "streetAddress": "9779 Etiam Rd",
        "city": "Lees Summit",
        "state": "ID",
        "zip": "76007"
      },
      "location": "eros sit et",
      "phoneNumber": "3692055747",
      "contactFName": "Kinnell",
      "contactLName": "Baligian",
      "contact": "{contactFName} {contactLName}",
      "date": "2033-11-01T05:40:41.093Z",
      "description": "velit aliquam elementum quis placerat sagittis tortor vel vitae tortor sollicitudin tellus etiam placerat sit mattis sed sed at vestibulum"
    },
    {
      "id": 11,
      "title": "magna lacus sapien velit sed",
      "address": {
        "streetAddress": "3297 Tincidunt Ct",
        "city": "Leesburg",
        "state": "UT",
        "zip": "99013"
      },
      "location": "ac etiam dolor",
      "phoneNumber": "8358707005",
      "contactFName": "Shahzad",
      "contactLName": "Warrenfeltz",
      "contact": "{contactFName} {contactLName}",
      "date": "1985-08-06T22:39:13.215Z",
      "description": "ac tortor et amet vitae augue turpis sed dolor at at neque mattis at donec magna eget adipiscing aliquam placerat"
    },
    {
      "id": 12,
      "title": "tortor sed placerat nec at",
      "address": {
        "streetAddress": "3405 Dolor St",
        "city": "Kenora",
        "state": "DE",
        "zip": "75253"
      },
      "location": "nec odio mattis",
      "phoneNumber": "4432903555",
      "contactFName": "Holli",
      "contactLName": "Reyes",
      "contact": "{contactFName} {contactLName}",
      "date": "2077-08-21T00:23:52.334Z",
      "description": "mi tellus sit pulvinar tortor lacus tincidunt tincidunt fringilla vestibulum magna pretium consequat pharetra libero tellus in pretium nunc sollicitudin"
    },
    {
      "id": 13,
      "title": "dolor lacus tempor pharetra amet",
      "address": {
        "streetAddress": "9972 Neque St",
        "city": "Lewiston",
        "state": "NE",
        "zip": "42710"
      },
      "location": "donec sit mi",
      "phoneNumber": "5688481541",
      "contactFName": "Talatha",
      "contactLName": "Clagg",
      "contact": "{contactFName} {contactLName}",
      "date": "2035-09-01T12:29:39.909Z",
      "description": "augue porttitor aliquam sagittis sed libero quis aenean amet porttitor magna pretium id massa consectetur ac odio non nec tincidunt"
    },
    {
      "id": 14,
      "title": "facilisis elit tempor porttitor et",
      "address": {
        "streetAddress": "1369 Vestibulum Dr",
        "city": "Palm Harbor",
        "state": "WI",
        "zip": "87204"
      },
      "location": "amet egestas tincidunt",
      "phoneNumber": "7989271999",
      "contactFName": "Shanna",
      "contactLName": "Bias",
      "contact": "{contactFName} {contactLName}",
      "date": "1922-08-13T01:03:29.417Z",
      "description": "at vel sollicitudin sagittis vitae vitae egestas ipsum ac in hendrerit sed fringilla orci pulvinar non tincidunt et at velit"
    },
    {
      "id": 15,
      "title": "fringilla lectus velit dolor morbi",
      "address": {
        "streetAddress": "9352 Vel Ct",
        "city": "Englewood",
        "state": "CO",
        "zip": "91083"
      },
      "location": "quis tellus scelerisque",
      "phoneNumber": "7196589534",
      "contactFName": "Miguel",
      "contactLName": "Rizk",
      "contact": "{contactFName} {contactLName}",
      "date": "2083-05-30T08:20:24.941Z",
      "description": "quis tempor pulvinar sed vestibulum egestas odio massa lacus amet donec orci sed sed lectus convallis aliquam eget sed sit"
    },
    {
      "id": 16,
      "title": "pulvinar morbi donec dui et",
      "address": {
        "streetAddress": "2745 Amet Ave",
        "city": "Moundridge",
        "state": "MO",
        "zip": "84555"
      },
      "location": "magna hendrerit risus",
      "phoneNumber": "7551533116",
      "contactFName": "Fred",
      "contactLName": "Hist",
      "contact": "{contactFName} {contactLName}",
      "date": "1974-08-12T11:53:41.368Z",
      "description": "mi velit odio neque etiam pharetra egestas suspendisse vitae vitae sed mattis tortor scelerisque tortor malesuada elementum donec morbi pretium"
    },
    {
      "id": 17,
      "title": "amet sagittis suspendisse lacus sagittis",
      "address": {
        "streetAddress": "1171 Lectus St",
        "city": "Cypress",
        "state": "NM",
        "zip": "40510"
      },
      "location": "adipiscing vestibulum facilisis",
      "phoneNumber": "9886730390",
      "contactFName": "Xiaoyan",
      "contactLName": "Heppelmann",
      "contact": "{contactFName} {contactLName}",
      "date": "2025-04-18T07:38:07.507Z",
      "description": "elementum molestie magna et vitae massa vitae elit lacus et elementum augue etiam lorem porta elementum vitae ante sed convallis"
    },
    {
      "id": 18,
      "title": "odio hendrerit quis vitae dolor",
      "address": {
        "streetAddress": "8094 Facilisis Ct",
        "city": "Concord",
        "state": "ND",
        "zip": "65773"
      },
      "location": "facilisis orci porta",
      "phoneNumber": "1105920075",
      "contactFName": "Jeri",
      "contactLName": "Penning",
      "contact": "{contactFName} {contactLName}",
      "date": "2038-04-08T20:51:14.158Z",
      "description": "nullam dui id sed etiam aenean elementum scelerisque et nec augue aenean adipiscing odio augue pretium amet placerat consequat rutrum"
    },
    {
      "id": 19,
      "title": "magna nec sollicitudin eros tempor",
      "address": {
        "streetAddress": "1369 Lacus St",
        "city": "Odessa",
        "state": "SD",
        "zip": "52600"
      },
      "location": "aliquam neque sed",
      "phoneNumber": "1436767299",
      "contactFName": "Cynthia",
      "contactLName": "Mangat",
      "contact": "{contactFName} {contactLName}",
      "date": "2087-01-01T05:22:09.790Z",
      "description": "pretium vestibulum consectetur sed tellus scelerisque non at in curabitur sollicitudin dolor mi ac vel aenean vel vel lacus augue"
    },
    {
      "id": 20,
      "title": "dolor dolor nec risus mattis",
      "address": {
        "streetAddress": "5980 Sed Rd",
        "city": "Curtis Bay",
        "state": "OH",
        "zip": "25555"
      },
      "location": "odio amet et",
      "phoneNumber": "3680603092",
      "contactFName": "Danella",
      "contactLName": "Reynolds",
      "contact": "{contactFName} {contactLName}",
      "date": "1982-12-20T08:14:08.760Z",
      "description": "sagittis convallis sollicitudin hendrerit nullam orci porttitor risus sed dolor amet sapien aenean suspendisse lacus elit odio porta id tincidunt"
    },
    {
      "id": 21,
      "title": "tincidunt dolor tincidunt magna pharetra",
      "address": {
        "streetAddress": "1574 Etiam Dr",
        "city": "New Port Richey",
        "state": "TN",
        "zip": "27320"
      },
      "location": "turpis placerat vestibulum",
      "phoneNumber": "1443074048",
      "contactFName": "Pablo",
      "contactLName": "Alvarez",
      "contact": "{contactFName} {contactLName}",
      "date": "2064-06-26T18:59:10.783Z",
      "description": "massa curabitur pulvinar sed donec consequat in sed vestibulum tortor lectus malesuada adipiscing ipsum dolor placerat elementum velit elit et"
    },
    {
      "id": 22,
      "title": "tellus odio mattis sit in",
      "address": {
        "streetAddress": "9081 Tortor Ave",
        "city": "Davisburg",
        "state": "KY",
        "zip": "60366"
      },
      "location": "fringilla at sed",
      "phoneNumber": "4911156881",
      "contactFName": "Walter",
      "contactLName": "Mauro",
      "contact": "{contactFName} {contactLName}",
      "date": "1912-11-16T09:11:24.648Z",
      "description": "placerat consectetur ipsum dolor tellus facilisis augue ante ac eget vestibulum nullam velit vitae vel sagittis pulvinar fringilla nullam convallis"
    },
    {
      "id": 23,
      "title": "amet consequat convallis odio nunc",
      "address": {
        "streetAddress": "5437 Adipiscing Ln",
        "city": "Miami",
        "state": "MO",
        "zip": "32300"
      },
      "location": "at convallis elementum",
      "phoneNumber": "6852676338",
      "contactFName": "Cecelia",
      "contactLName": "Bottone",
      "contact": "{contactFName} {contactLName}",
      "date": "2093-07-29T21:25:16.961Z",
      "description": "nec nunc eros at vitae et porttitor turpis aliquam dolor elementum lectus massa lacus suspendisse vitae nunc ante magna pulvinar"
    },
    {
      "id": 24,
      "title": "tincidunt lacus vestibulum ante sit",
      "address": {
        "streetAddress": "4409 Tincidunt St",
        "city": "Brooklyn",
        "state": "CA",
        "zip": "71535"
      },
      "location": "vitae aliquam sit",
      "phoneNumber": "3519415308",
      "contactFName": "Maribel",
      "contactLName": "Haugland",
      "contact": "{contactFName} {contactLName}",
      "date": "2049-07-25T11:50:52.871Z",
      "description": "turpis risus tellus adipiscing velit ac dolor at mi mattis ipsum eros donec suspendisse vitae at vitae curabitur fringilla sed"
    },
    {
      "id": 25,
      "title": "rutrum dolor aenean augue amet",
      "address": {
        "streetAddress": "3502 Id Rd",
        "city": "White Bear Lake",
        "state": "AR",
        "zip": "91086"
      },
      "location": "facilisis rutrum vitae",
      "phoneNumber": "7494266958",
      "contactFName": "Laurie",
      "contactLName": "Evans",
      "contact": "{contactFName} {contactLName}",
      "date": "2024-08-18T14:09:32.666Z",
      "description": "lectus lacus dolor et quis pulvinar et vitae odio magna sed molestie turpis vitae sollicitudin sit nunc ipsum sit sed"
    },
    {
      "id": 26,
      "title": "lectus scelerisque ac tempor tempor",
      "address": {
        "streetAddress": "7257 Dolor Rd",
        "city": "Circleville",
        "state": "PA",
        "zip": "52206"
      },
      "location": "morbi amet sollicitudin",
      "phoneNumber": "9364267871",
      "contactFName": "Ryan",
      "contactLName": "Reddick",
      "contact": "{contactFName} {contactLName}",
      "date": "1906-09-15T08:31:13.468Z",
      "description": "massa tincidunt suspendisse suspendisse magna ipsum ipsum odio et massa dolor ac mattis sollicitudin donec morbi sed dolor risus at"
    },
    {
      "id": 27,
      "title": "lacus id sagittis mi eget",
      "address": {
        "streetAddress": "4088 Odio Dr",
        "city": "Smithers",
        "state": "NC",
        "zip": "42346"
      },
      "location": "tempor sollicitudin at",
      "phoneNumber": "7648742037",
      "contactFName": "Jacqueline",
      "contactLName": "Shute",
      "contact": "{contactFName} {contactLName}",
      "date": "2006-03-18T06:23:43.805Z",
      "description": "sit nullam at tortor magna egestas magna at rutrum fringilla sagittis tincidunt lorem non odio magna mattis quis pretium placerat"
    },
    {
      "id": 28,
      "title": "consectetur sed dolor elementum amet",
      "address": {
        "streetAddress": "6384 Augue Ct",
        "city": "Loves Park",
        "state": "CO",
        "zip": "18962"
      },
      "location": "lorem aliquam massa",
      "phoneNumber": "4840462090",
      "contactFName": "Herbert",
      "contactLName": "Reeder",
      "contact": "{contactFName} {contactLName}",
      "date": "1964-11-15T02:57:37.007Z",
      "description": "tellus etiam magna porttitor molestie lacus ipsum amet neque quis velit eget amet morbi sed massa pretium egestas consequat tortor"
    },
    {
      "id": 29,
      "title": "dolor lacus sed porta ipsum",
      "address": {
        "streetAddress": "2513 Velit Dr",
        "city": "Warwick",
        "state": "MO",
        "zip": "22797"
      },
      "location": "quis vestibulum placerat",
      "phoneNumber": "2454322672",
      "contactFName": "Phyllis",
      "contactLName": "Fouts",
      "contact": "{contactFName} {contactLName}",
      "date": "2046-01-06T11:02:53.934Z",
      "description": "fringilla aenean augue scelerisque tellus convallis id etiam placerat odio lacus sed eget curabitur donec sit risus orci convallis adipiscing"
    },
    {
      "id": 30,
      "title": "placerat amet dolor lacus et",
      "address": {
        "streetAddress": "6667 Quis Ave",
        "city": "Montreal",
        "state": "KS",
        "zip": "58014"
      },
      "location": "magna suspendisse tellus",
      "phoneNumber": "1707219821",
      "contactFName": "Arvid",
      "contactLName": "Diriwachter",
      "contact": "{contactFName} {contactLName}",
      "date": "2036-07-28T03:24:29.481Z",
      "description": "sed mattis id sit nec aenean morbi aliquam augue hendrerit massa aliquam tincidunt dolor aliquam sagittis egestas tincidunt placerat convallis"
    },
    {
      "id": 31,
      "title": "lectus vestibulum pulvinar odio convallis",
      "address": {
        "streetAddress": "9578 Orci Ave",
        "city": "Jacksonville",
        "state": "NJ",
        "zip": "42830"
      },
      "location": "egestas sagittis sed",
      "phoneNumber": "7429293944",
      "contactFName": "Clare",
      "contactLName": "Pfaff",
      "contact": "{contactFName} {contactLName}",
      "date": "2084-02-23T17:36:32.677Z",
      "description": "vestibulum magna morbi adipiscing consectetur magna mattis molestie facilisis vestibulum nullam at malesuada turpis magna turpis non vestibulum tortor quis"
    },
    {
      "id": 32,
      "title": "consequat morbi molestie pharetra lorem",
      "address": {
        "streetAddress": "4887 Orci Ave",
        "city": "Brodhead",
        "state": "OK",
        "zip": "98507"
      },
      "location": "id aenean elit",
      "phoneNumber": "4437533662",
      "contactFName": "Monia",
      "contactLName": "Allison",
      "contact": "{contactFName} {contactLName}",
      "date": "1980-04-30T03:42:13.731Z",
      "description": "massa amet lorem vel aliquam eros lorem hendrerit massa vel eget lectus pharetra in porta tortor donec lacus magna rutrum"
    },
    {
      "id": 33,
      "title": "velit adipiscing risus donec sit",
      "address": {
        "streetAddress": "9475 Pharetra St",
        "city": "Waukesha",
        "state": "IN",
        "zip": "23052"
      },
      "location": "tortor in aliquam",
      "phoneNumber": "2090523815",
      "contactFName": "Luzinda",
      "contactLName": "Stafford",
      "contact": "{contactFName} {contactLName}",
      "date": "2076-08-04T01:20:11.410Z",
      "description": "pulvinar amet augue et aenean ipsum quis aliquam tortor pharetra id adipiscing quis orci dolor sagittis dolor rutrum molestie massa"
    },
    {
      "id": 34,
      "title": "massa facilisis vestibulum scelerisque odio",
      "address": {
        "streetAddress": "4167 Sed St",
        "city": "Sterling",
        "state": "CO",
        "zip": "82583"
      },
      "location": "lacus porta amet",
      "phoneNumber": "6777358907",
      "contactFName": "Hope",
      "contactLName": "Vera",
      "contact": "{contactFName} {contactLName}",
      "date": "1944-10-30T09:36:32.755Z",
      "description": "pretium massa vitae ipsum fringilla sit tellus orci orci sed pharetra tincidunt elementum porta molestie magna facilisis tincidunt orci malesuada"
    },
    {
      "id": 35,
      "title": "placerat convallis rutrum hendrerit pulvinar",
      "address": {
        "streetAddress": "3823 Nullam Ct",
        "city": "San Jose",
        "state": "MO",
        "zip": "33673"
      },
      "location": "orci nullam malesuada",
      "phoneNumber": "6682037767",
      "contactFName": "Jacob",
      "contactLName": "Immormino",
      "contact": "{contactFName} {contactLName}",
      "date": "1920-05-10T22:09:08.275Z",
      "description": "augue mattis nec adipiscing eros pulvinar sollicitudin ipsum lacus consectetur nunc at sed egestas at consectetur aenean dolor et sagittis"
    },
    {
      "id": 36,
      "title": "magna porta vel tincidunt malesuada",
      "address": {
        "streetAddress": "7313 Convallis St",
        "city": "Hagerstown",
        "state": "KS",
        "zip": "80316"
      },
      "location": "tincidunt nec rutrum",
      "phoneNumber": "4573655880",
      "contactFName": "Alexander",
      "contactLName": "Cabrera",
      "contact": "{contactFName} {contactLName}",
      "date": "1908-07-09T06:12:40.569Z",
      "description": "suspendisse amet ipsum aenean ipsum pretium at etiam aliquam dolor adipiscing lacus tortor tortor magna libero sed magna ipsum vestibulum"
    },
    {
      "id": 37,
      "title": "vestibulum sed pulvinar lacus ipsum",
      "address": {
        "streetAddress": "324 Aliquam Ave",
        "city": "Duck River",
        "state": "MD",
        "zip": "13244"
      },
      "location": "aenean dolor nunc",
      "phoneNumber": "3863328799",
      "contactFName": "Amir",
      "contactLName": "Martin",
      "contact": "{contactFName} {contactLName}",
      "date": "1990-01-29T01:56:14.085Z",
      "description": "aliquam amet odio vestibulum et libero lectus ipsum magna quis pharetra ipsum at sollicitudin mattis nunc vitae sit id quis"
    },
    {
      "id": 38,
      "title": "quis vel tincidunt massa elit",
      "address": {
        "streetAddress": "4865 Curabitur Ln",
        "city": "Wasington Dc",
        "state": "KS",
        "zip": "63911"
      },
      "location": "lacus lacus ac",
      "phoneNumber": "8226028102",
      "contactFName": "Lane",
      "contactLName": "Amaral",
      "contact": "{contactFName} {contactLName}",
      "date": "1920-01-15T03:29:32.550Z",
      "description": "tellus pretium massa pulvinar lacus molestie lorem egestas sapien risus rutrum suspendisse vestibulum mi elit consectetur lacus tortor velit nullam"
    },
    {
      "id": 39,
      "title": "magna pharetra dui amet porttitor",
      "address": {
        "streetAddress": "9237 Vestibulum St",
        "city": "Stl",
        "state": "AR",
        "zip": "29135"
      },
      "location": "nullam neque orci",
      "phoneNumber": "9219321973",
      "contactFName": "Roy",
      "contactLName": "Lightner",
      "contact": "{contactFName} {contactLName}",
      "date": "2025-08-12T23:45:08.277Z",
      "description": "porta porttitor sit donec at pharetra sollicitudin pretium nullam orci dolor sollicitudin tortor at massa vestibulum porta ac tortor amet"
    },
    {
      "id": 40,
      "title": "curabitur placerat pharetra sit dolor",
      "address": {
        "streetAddress": "278 Dolor Dr",
        "city": "Toronto",
        "state": "OK",
        "zip": "61211"
      },
      "location": "et etiam tincidunt",
      "phoneNumber": "3732138264",
      "contactFName": "Zhanna",
      "contactLName": "Hutchings",
      "contact": "{contactFName} {contactLName}",
      "date": "2083-11-29T16:03:43.942Z",
      "description": "dolor convallis ante lectus consectetur orci amet tortor vestibulum orci ipsum vitae facilisis sit sollicitudin sed risus egestas mattis sed"
    },
    {
      "id": 41,
      "title": "elit facilisis suspendisse odio et",
      "address": {
        "streetAddress": "6270 Eros St",
        "city": "San Gabriel Valley",
        "state": "AR",
        "zip": "63064"
      },
      "location": "etiam lacus porta",
      "phoneNumber": "7342242811",
      "contactFName": "Heidi",
      "contactLName": "Gilkerson",
      "contact": "{contactFName} {contactLName}",
      "date": "2070-07-12T03:29:15.308Z",
      "description": "amet placerat tellus massa non sed sollicitudin tincidunt amet et velit turpis lacus ipsum eget turpis pulvinar pulvinar amet amet"
    },
    {
      "id": 42,
      "title": "curabitur nullam non magna sollicitudin",
      "address": {
        "streetAddress": "2379 Curabitur Dr",
        "city": "Sacramento",
        "state": "HI",
        "zip": "61399"
      },
      "location": "amet vestibulum elit",
      "phoneNumber": "4314781153",
      "contactFName": "Theodora",
      "contactLName": "Demerath",
      "contact": "{contactFName} {contactLName}",
      "date": "1922-06-04T00:38:27.884Z",
      "description": "vestibulum aenean in vitae consequat vestibulum sit nunc vitae malesuada tincidunt dolor odio odio morbi adipiscing sit non nunc morbi"
    },
    {
      "id": 43,
      "title": "mattis magna risus pulvinar adipiscing",
      "address": {
        "streetAddress": "552 Convallis Rd",
        "city": "Wasington Dc",
        "state": "IA",
        "zip": "16926"
      },
      "location": "molestie eros magna",
      "phoneNumber": "3120909232",
      "contactFName": "Lupita",
      "contactLName": "Klepsteen",
      "contact": "{contactFName} {contactLName}",
      "date": "2058-03-12T12:09:45.383Z",
      "description": "morbi magna placerat convallis magna mattis ipsum elit neque ante porttitor placerat massa etiam hendrerit quis odio hendrerit porttitor pulvinar"
    },
    {
      "id": 44,
      "title": "aliquam convallis aliquam placerat turpis",
      "address": {
        "streetAddress": "6978 Quis Dr",
        "city": "Coon Rapids",
        "state": "DE",
        "zip": "85551"
      },
      "location": "nec morbi placerat",
      "phoneNumber": "4774446827",
      "contactFName": "Anthony",
      "contactLName": "Roth",
      "contact": "{contactFName} {contactLName}",
      "date": "1992-06-01T23:09:43.106Z",
      "description": "sit convallis convallis tortor sagittis sed orci suspendisse aliquam etiam turpis pharetra tortor sit lacus malesuada mi curabitur consectetur non"
    },
    {
      "id": 45,
      "title": "sed amet amet nunc fringilla",
      "address": {
        "streetAddress": "2577 Libero St",
        "city": "Manchester",
        "state": "NC",
        "zip": "13539"
      },
      "location": "odio libero magna",
      "phoneNumber": "9923367578",
      "contactFName": "Kingi",
      "contactLName": "Santana",
      "contact": "{contactFName} {contactLName}",
      "date": "2071-11-02T14:40:40.118Z",
      "description": "adipiscing fringilla sollicitudin massa amet dolor libero tellus dolor vitae lacus in lacus nec sed egestas aliquam scelerisque facilisis nec"
    },
    {
      "id": 46,
      "title": "id malesuada donec nec sed",
      "address": {
        "streetAddress": "4161 Vel Rd",
        "city": "Roanoke",
        "state": "WY",
        "zip": "47730"
      },
      "location": "odio consectetur sit",
      "phoneNumber": "2688439209",
      "contactFName": "Bobby",
      "contactLName": "Palterman",
      "contact": "{contactFName} {contactLName}",
      "date": "1901-06-19T11:39:23.916Z",
      "description": "sapien at rutrum libero dolor hendrerit dui et consequat ante sagittis elit eget pulvinar massa sed at sed eros lacus"
    },
    {
      "id": 47,
      "title": "augue lectus pulvinar amet vestibulum",
      "address": {
        "streetAddress": "9339 Morbi Ct",
        "city": "Villa Rica",
        "state": "DE",
        "zip": "13385"
      },
      "location": "pretium dolor turpis",
      "phoneNumber": "1957731756",
      "contactFName": "Alberto",
      "contactLName": "Kandray",
      "contact": "{contactFName} {contactLName}",
      "date": "2084-08-20T20:44:03.417Z",
      "description": "sollicitudin elementum morbi elit sed turpis nunc pulvinar tortor in adipiscing lacus ac etiam pulvinar eros malesuada scelerisque vel eros"
    },
    {
      "id": 48,
      "title": "magna consectetur vitae risus orci",
      "address": {
        "streetAddress": "7369 Sit Dr",
        "city": "Mcdonough",
        "state": "WY",
        "zip": "18427"
      },
      "location": "aenean lacus placerat",
      "phoneNumber": "5941099703",
      "contactFName": "Sunil",
      "contactLName": "Vinton",
      "contact": "{contactFName} {contactLName}",
      "date": "1957-09-29T01:50:22.021Z",
      "description": "tincidunt lacus rutrum quis id donec sagittis sit aliquam tortor tortor nec pulvinar magna mi sapien tortor magna suspendisse nec"
    },
    {
      "id": 49,
      "title": "non ac magna adipiscing sollicitudin",
      "address": {
        "streetAddress": "6379 Malesuada Dr",
        "city": "Lockport",
        "state": "ID",
        "zip": "61348"
      },
      "location": "facilisis fringilla curabitur",
      "phoneNumber": "1782824133",
      "contactFName": "Stacey",
      "contactLName": "Whatley",
      "contact": "{contactFName} {contactLName}",
      "date": "2097-07-31T22:00:19.456Z",
      "description": "ipsum magna augue elit consectetur adipiscing scelerisque aenean at nec aenean sit non tortor odio in lectus porttitor ac convallis"
    },
    {
      "id": 50,
      "title": "sed sed sed eros elit",
      "address": {
        "streetAddress": "2315 Placerat Rd",
        "city": "Manchester",
        "state": "CT",
        "zip": "72737"
      },
      "location": "orci rutrum lacus",
      "phoneNumber": "8831706189",
      "contactFName": "Brien",
      "contactLName": "Kozlowski",
      "contact": "{contactFName} {contactLName}",
      "date": "2065-02-26T14:54:08.200Z",
      "description": "etiam amet porttitor dolor convallis dolor lorem convallis quis tellus non aliquam quis morbi mattis mattis orci consequat nunc tortor"
    }
  ],
  "users": [
    {
      "id": 1,
      "username": "LMinihane",
      "password": "DKSyqIJC",
      "firstName": "Alycia",
      "lastName": "Rehnke",
      "email": "AFitzgerald@sapien.ly",
      "address": {
        "streetAddress": "2871 Scelerisque Rd",
        "city": "Conover",
        "state": "MI",
        "zip": "14498"
      },
      "phoneNumber": "(428)723-4317",
      "role": 6
    },
    {
      "id": 2,
      "username": "BWieber",
      "password": "GmhTcW6i",
      "firstName": "Jiby",
      "lastName": "Ellington",
      "email": "JKrasowski@odio.com",
      "address": {
        "streetAddress": "8252 Suspendisse Dr",
        "city": "Northern Ca",
        "state": "TN",
        "zip": "64574"
      },
      "phoneNumber": "(794)225-8300",
      "role": 7
    },
    {
      "id": 3,
      "username": "CSmallwood",
      "password": "tXs1pGlS",
      "firstName": "Earnestine",
      "lastName": "Hancock",
      "email": "LEschenbacher@dolor.com",
      "address": {
        "streetAddress": "1435 Libero Ct",
        "city": "Mesa",
        "state": "LA",
        "zip": "14203"
      },
      "phoneNumber": "(832)855-6947",
      "role": 2
    },
    {
      "id": 4,
      "username": "BMahan",
      "password": "LtcY2zLf",
      "firstName": "j",
      "lastName": "Ney",
      "email": "FKlapper@tempor.io",
      "address": {
        "streetAddress": "8556 Suspendisse Rd",
        "city": "Bessemer City",
        "state": "FL",
        "zip": "40074"
      },
      "phoneNumber": "(473)272-4636",
      "role": 6
    },
    {
      "id": 5,
      "username": "MCann",
      "password": "ifRM53Ei",
      "firstName": "Yong",
      "lastName": "Burkes",
      "email": "KJacobs@porttitor.com",
      "address": {
        "streetAddress": "5879 Pulvinar Rd",
        "city": "Brighton",
        "state": "IL",
        "zip": "36332"
      },
      "phoneNumber": "(930)557-5282",
      "role": 3
    },
    {
      "id": 6,
      "username": "FCrantek",
      "password": "tOhjdqX1",
      "firstName": "Sandro",
      "lastName": "Salguero",
      "email": "JWilley@lacus.net",
      "address": {
        "streetAddress": "3821 Risus Ct",
        "city": "New Port Richey",
        "state": "RI",
        "zip": "69282"
      },
      "phoneNumber": "(294)347-8890",
      "role": 9
    },
    {
      "id": 7,
      "username": "AMelvin",
      "password": "4rgd3C29",
      "firstName": "Bryan",
      "lastName": "Kellams",
      "email": "AHansen@velit.io",
      "address": {
        "streetAddress": "6584 Amet Dr",
        "city": "Davisburg",
        "state": "MI",
        "zip": "18355"
      },
      "phoneNumber": "(623)843-1476",
      "role": 9
    },
    {
      "id": 8,
      "username": "SVelasco",
      "password": "A21rwmJT",
      "firstName": "Tracey",
      "lastName": "Catania",
      "email": "DBunge@in.org",
      "address": {
        "streetAddress": "941 Tincidunt Dr",
        "city": "Brodhead",
        "state": "WI",
        "zip": "21313"
      },
      "phoneNumber": "(886)083-2521",
      "role": 7
    },
    {
      "id": 9,
      "username": "AMatros",
      "password": "GWxSJe7v",
      "firstName": "Myradaisy",
      "lastName": "Solomon",
      "email": "NHudgens@odio.ly",
      "address": {
        "streetAddress": "281 Sed Ave",
        "city": "Bellefontaine",
        "state": "WV",
        "zip": "57418"
      },
      "phoneNumber": "(303)300-1784",
      "role": 2
    },
    {
      "id": 10,
      "username": "AAyers",
      "password": "KbUWEhWz",
      "firstName": "Kendall",
      "lastName": "Mcdonald",
      "email": "SEvans@sollicitudin.io",
      "address": {
        "streetAddress": "3789 Mattis Ct",
        "city": "Rockville",
        "state": "AL",
        "zip": "90438"
      },
      "phoneNumber": "(195)976-6427",
      "role": 2
    },
    {
      "id": 11,
      "username": "CBlackwell",
      "password": "SOUcZM3O",
      "firstName": "Nirmal",
      "lastName": "Dech",
      "email": "LNimon@neque.ly",
      "address": {
        "streetAddress": "9562 Mi Ln",
        "city": "Columbia",
        "state": "MD",
        "zip": "38463"
      },
      "phoneNumber": "(934)974-3198",
      "role": 0
    },
    {
      "id": 12,
      "username": "ESpellicy",
      "password": "enuZVv29",
      "firstName": "Shane",
      "lastName": "Walley",
      "email": "MOshins@malesuada.org",
      "address": {
        "streetAddress": "1745 Placerat Ct",
        "city": "Siloam Springs",
        "state": "OH",
        "zip": "97176"
      },
      "phoneNumber": "(476)202-2516",
      "role": 9
    },
    {
      "id": 13,
      "username": "XLoban",
      "password": "k9VROv4a",
      "firstName": "Samir",
      "lastName": "Vanessen",
      "email": "CPick@etiam.net",
      "address": {
        "streetAddress": "2820 Hendrerit Ave",
        "city": "Trinity",
        "state": "TN",
        "zip": "37367"
      },
      "phoneNumber": "(319)489-5939",
      "role": 0
    },
    {
      "id": 14,
      "username": "BKilpatrick",
      "password": "bV8nFNxr",
      "firstName": "Karita",
      "lastName": "Clifford",
      "email": "JBest@massa.com",
      "address": {
        "streetAddress": "751 Vestibulum Ave",
        "city": "Altoona",
        "state": "IA",
        "zip": "77110"
      },
      "phoneNumber": "(317)538-3952",
      "role": 4
    },
    {
      "id": 15,
      "username": "BVanatta",
      "password": "fDL7ypUT",
      "firstName": "Carla",
      "lastName": "Torres",
      "email": "MLee@dolor.gov",
      "address": {
        "streetAddress": "3149 Adipiscing St",
        "city": "Janesville",
        "state": "MO",
        "zip": "13353"
      },
      "phoneNumber": "(860)306-9567",
      "role": 8
    },
    {
      "id": 16,
      "username": "CPyle",
      "password": "9Bx9eyXT",
      "firstName": "Karolis",
      "lastName": "Hall",
      "email": "RBroas@donec.ly",
      "address": {
        "streetAddress": "9599 Sit Ave",
        "city": "Monroe",
        "state": "MI",
        "zip": "15012"
      },
      "phoneNumber": "(867)218-9716",
      "role": 2
    },
    {
      "id": 17,
      "username": "GHauler",
      "password": "dFh6KfY9",
      "firstName": "Rhonda",
      "lastName": "Daniello",
      "email": "JStalinski@mattis.net",
      "address": {
        "streetAddress": "7089 Ipsum Ln",
        "city": "Northern Ca",
        "state": "SD",
        "zip": "35303"
      },
      "phoneNumber": "(584)164-0191",
      "role": 5
    },
    {
      "id": 18,
      "username": "ALacrosse",
      "password": "vlMEGx0r",
      "firstName": "Bertha",
      "lastName": "Peterman",
      "email": "ILyn@porttitor.io",
      "address": {
        "streetAddress": "9383 Morbi Ln",
        "city": "Delray",
        "state": "AZ",
        "zip": "96709"
      },
      "phoneNumber": "(490)144-8866",
      "role": 6
    },
    {
      "id": 19,
      "username": "MRollinger",
      "password": "KBCIZf7O",
      "firstName": "Cathleen",
      "lastName": "Ratchawongsa",
      "email": "GLazcano@magna.ly",
      "address": {
        "streetAddress": "3535 Nec Ln",
        "city": "Brick",
        "state": "IL",
        "zip": "59955"
      },
      "phoneNumber": "(750)737-7669",
      "role": 8
    },
    {
      "id": 20,
      "username": "WIngham",
      "password": "dum5K0KX",
      "firstName": "Lloyd",
      "lastName": "Stallone",
      "email": "AForgey@malesuada.net",
      "address": {
        "streetAddress": "8201 Donec Ln",
        "city": "Greenville",
        "state": "NC",
        "zip": "35732"
      },
      "phoneNumber": "(476)322-4089",
      "role": 4
    },
    {
      "id": 21,
      "username": "RKessel",
      "password": "cJ0BfOyZ",
      "firstName": "Rodney",
      "lastName": "Petti",
      "email": "HVanessen@fringilla.net",
      "address": {
        "streetAddress": "492 Lorem Dr",
        "city": "Apopka",
        "state": "NY",
        "zip": "72461"
      },
      "phoneNumber": "(164)635-4594",
      "role": 5
    },
    {
      "id": 22,
      "username": "SRenbarger",
      "password": "JPbA0AJE",
      "firstName": "Asha",
      "lastName": "Ortega",
      "email": "SIsham@pulvinar.gov",
      "address": {
        "streetAddress": "2822 Mattis Ln",
        "city": "Senoia",
        "state": "MD",
        "zip": "10547"
      },
      "phoneNumber": "(174)879-3732",
      "role": 3
    },
    {
      "id": 23,
      "username": "KGonshor",
      "password": "dxiMk16z",
      "firstName": "Kofi",
      "lastName": "Garbe",
      "email": "RValkanet@dui.io",
      "address": {
        "streetAddress": "843 Placerat Dr",
        "city": "Seaside",
        "state": "SD",
        "zip": "78958"
      },
      "phoneNumber": "(741)737-8637",
      "role": 1
    },
    {
      "id": 24,
      "username": "TNance",
      "password": "OaOF1wR6",
      "firstName": "Jim",
      "lastName": "Willman",
      "email": "YAresti@molestie.gov",
      "address": {
        "streetAddress": "7567 Placerat Ct",
        "city": "Delray",
        "state": "ND",
        "zip": "62307"
      },
      "phoneNumber": "(515)807-7816",
      "role": 6
    },
    {
      "id": 25,
      "username": "LPorter",
      "password": "Wwv826np",
      "firstName": "Courtney",
      "lastName": "Waldman",
      "email": "LMarzolf@amet.ly",
      "address": {
        "streetAddress": "3266 Lacus Ave",
        "city": "Whitman",
        "state": "NY",
        "zip": "40654"
      },
      "phoneNumber": "(286)752-7777",
      "role": 3
    },
    {
      "id": 26,
      "username": "CLoya",
      "password": "nJSxnVhy",
      "firstName": "Gladys",
      "lastName": "Owens",
      "email": "BTempleman@facilisis.gov",
      "address": {
        "streetAddress": "6827 Velit Dr",
        "city": "Pasco",
        "state": "ID",
        "zip": "67746"
      },
      "phoneNumber": "(158)219-3568",
      "role": 3
    },
    {
      "id": 27,
      "username": "BMorin",
      "password": "nSRYpajI",
      "firstName": "Greg",
      "lastName": "Wimmer",
      "email": "DLill@sollicitudin.io",
      "address": {
        "streetAddress": "4027 Curabitur Dr",
        "city": "Elmwood Park",
        "state": "AK",
        "zip": "53117"
      },
      "phoneNumber": "(993)957-3575",
      "role": 5
    },
    {
      "id": 28,
      "username": "MSpratt",
      "password": "H4FQeDuP",
      "firstName": "Theodore",
      "lastName": "Nagel",
      "email": "FBarrick@dolor.org",
      "address": {
        "streetAddress": "7288 Ac St",
        "city": "Prattville",
        "state": "FL",
        "zip": "20141"
      },
      "phoneNumber": "(144)763-4323",
      "role": 4
    },
    {
      "id": 29,
      "username": "ANajanick",
      "password": "GJXZ86MN",
      "firstName": "Jackie",
      "lastName": "Mckelvy",
      "email": "ELawson@vel.net",
      "address": {
        "streetAddress": "6595 Id Rd",
        "city": "Stamford",
        "state": "CT",
        "zip": "49931"
      },
      "phoneNumber": "(441)120-8593",
      "role": 6
    },
    {
      "id": 30,
      "username": "ABrooks",
      "password": "54iNOt0p",
      "firstName": "Debbie",
      "lastName": "Crantek",
      "email": "KReinhardt@sed.io",
      "address": {
        "streetAddress": "4153 Pulvinar Rd",
        "city": "Rachel",
        "state": "AL",
        "zip": "27040"
      },
      "phoneNumber": "(246)296-6845",
      "role": 8
    },
    {
      "id": 31,
      "username": "HLinville",
      "password": "I5HJNvpX",
      "firstName": "Bern",
      "lastName": "Levin",
      "email": "ERoazen@vitae.com",
      "address": {
        "streetAddress": "6415 Tempor St",
        "city": "Hampton Roads",
        "state": "LA",
        "zip": "62110"
      },
      "phoneNumber": "(698)858-0728",
      "role": 7
    },
    {
      "id": 32,
      "username": "DAubut",
      "password": "xC7mT4sS",
      "firstName": "Valery",
      "lastName": "Van",
      "email": "NHodgson@elementum.net",
      "address": {
        "streetAddress": "7788 Malesuada Ave",
        "city": "Curtis Bay",
        "state": "WY",
        "zip": "36403"
      },
      "phoneNumber": "(347)182-7272",
      "role": 1
    },
    {
      "id": 33,
      "username": "SPento",
      "password": "aHuDHeAy",
      "firstName": "Tracey",
      "lastName": "Vrtis",
      "email": "HRadist@magna.org",
      "address": {
        "streetAddress": "6124 Tellus Ave",
        "city": "Wichita",
        "state": "AR",
        "zip": "48808"
      },
      "phoneNumber": "(545)097-0086",
      "role": 9
    },
    {
      "id": 34,
      "username": "THaynes",
      "password": "4PnIsdoR",
      "firstName": "Susi",
      "lastName": "Lazier",
      "email": "KGilbertson@egestas.io",
      "address": {
        "streetAddress": "8776 Lorem Dr",
        "city": "Wahiawa",
        "state": "OR",
        "zip": "35673"
      },
      "phoneNumber": "(757)018-0015",
      "role": 6
    },
    {
      "id": 35,
      "username": "GPollard",
      "password": "MUaaN8oO",
      "firstName": "Julia",
      "lastName": "Mize",
      "email": "JSchotuen@odio.com",
      "address": {
        "streetAddress": "8207 Aliquam Ave",
        "city": "Marietta",
        "state": "WA",
        "zip": "58166"
      },
      "phoneNumber": "(704)896-4518",
      "role": 8
    },
    {
      "id": 36,
      "username": "RWieber",
      "password": "vIuYNE5P",
      "firstName": "Carmerlina",
      "lastName": "Pierce",
      "email": "MGalapon@sollicitudin.gov",
      "address": {
        "streetAddress": "1532 Lacus St",
        "city": "Walnut Creek",
        "state": "KY",
        "zip": "29610"
      },
      "phoneNumber": "(690)465-3272",
      "role": 8
    },
    {
      "id": 37,
      "username": "MWheeler",
      "password": "BETs80c7",
      "firstName": "Julie",
      "lastName": "Owens",
      "email": "RKephart@velit.org",
      "address": {
        "streetAddress": "2935 Libero St",
        "city": "Blaine",
        "state": "NM",
        "zip": "60450"
      },
      "phoneNumber": "(153)889-5196",
      "role": 9
    },
    {
      "id": 38,
      "username": "JFilleul",
      "password": "0DkwANIv",
      "firstName": "Tanita",
      "lastName": "Wassum",
      "email": "SSari@aliquam.net",
      "address": {
        "streetAddress": "4878 Malesuada Ct",
        "city": "Derby",
        "state": "ND",
        "zip": "40984"
      },
      "phoneNumber": "(805)567-3924",
      "role": 4
    },
    {
      "id": 39,
      "username": "JBartlett",
      "password": "tGZLwbD0",
      "firstName": "Xiaoyan",
      "lastName": "Berger",
      "email": "LSyner@in.org",
      "address": {
        "streetAddress": "4404 Dolor Ct",
        "city": "Patrick Afb",
        "state": "GA",
        "zip": "27865"
      },
      "phoneNumber": "(682)986-8821",
      "role": 8
    },
    {
      "id": 40,
      "username": "NAvila",
      "password": "kfExcSAd",
      "firstName": "Duane",
      "lastName": "Buikema",
      "email": "NImmormino@tincidunt.com",
      "address": {
        "streetAddress": "4081 Vitae Ct",
        "city": "San Francisco",
        "state": "NY",
        "zip": "46356"
      },
      "phoneNumber": "(307)555-3511",
      "role": 5
    },
    {
      "id": 41,
      "username": "DBoomer",
      "password": "6AlFA269",
      "firstName": "Ilona",
      "lastName": "Shaw",
      "email": "KWeeks@sit.ly",
      "address": {
        "streetAddress": "7222 Libero Ave",
        "city": "Kitchener",
        "state": "NY",
        "zip": "34748"
      },
      "phoneNumber": "(213)901-4776",
      "role": 7
    },
    {
      "id": 42,
      "username": "NHoward",
      "password": "82XPjsPK",
      "firstName": "Maureen",
      "lastName": "Budgell",
      "email": "SLake@placerat.com",
      "address": {
        "streetAddress": "7990 Ante Dr",
        "city": "Berlin",
        "state": "MA",
        "zip": "36943"
      },
      "phoneNumber": "(536)133-2168",
      "role": 4
    },
    {
      "id": 43,
      "username": "JKornation",
      "password": "KM2zHkBu",
      "firstName": "Patrina",
      "lastName": "Saur",
      "email": "DMayne@dolor.org",
      "address": {
        "streetAddress": "7683 Tortor Rd",
        "city": "Salt Lake City",
        "state": "OK",
        "zip": "33341"
      },
      "phoneNumber": "(858)134-4404",
      "role": 3
    },
    {
      "id": 44,
      "username": "KBraswell",
      "password": "2J3aswbu",
      "firstName": "Lauri",
      "lastName": "Solomon",
      "email": "MConk@magna.org",
      "address": {
        "streetAddress": "4758 Nec Ct",
        "city": "Sioux Falls",
        "state": "MN",
        "zip": "51581"
      },
      "phoneNumber": "(323)983-3074",
      "role": 1
    },
    {
      "id": 45,
      "username": "JRende",
      "password": "EbD531Re",
      "firstName": "Homma",
      "lastName": "Anderes",
      "email": "HRoberts@sed.com",
      "address": {
        "streetAddress": "766 Sollicitudin Ave",
        "city": "Conroe",
        "state": "GA",
        "zip": "84088"
      },
      "phoneNumber": "(743)823-3112",
      "role": 1
    },
    {
      "id": 46,
      "username": "KKnowles",
      "password": "qbDcP49k",
      "firstName": "Tae",
      "lastName": "Peck",
      "email": "EBranscombe@sollicitudin.net",
      "address": {
        "streetAddress": "2059 Dolor St",
        "city": "Boynton Beach",
        "state": "RI",
        "zip": "28817"
      },
      "phoneNumber": "(717)199-1148",
      "role": 2
    },
    {
      "id": 47,
      "username": "MMisoda",
      "password": "cQpUZsZh",
      "firstName": "Deirdre",
      "lastName": "Kirchner",
      "email": "LNunez@sit.ly",
      "address": {
        "streetAddress": "3203 Tortor Rd",
        "city": "Ogden",
        "state": "WY",
        "zip": "18373"
      },
      "phoneNumber": "(232)981-7694",
      "role": 5
    },
    {
      "id": 48,
      "username": "LUlvestad",
      "password": "4QI4l7h1",
      "firstName": "Vaibhavi",
      "lastName": "Keen",
      "email": "VClayton@ipsum.com",
      "address": {
        "streetAddress": "4326 Porttitor Dr",
        "city": "Harrisburg",
        "state": "RI",
        "zip": "60716"
      },
      "phoneNumber": "(672)154-6553",
      "role": 7
    },
    {
      "id": 49,
      "username": "CMills",
      "password": "ZRvczjO1",
      "firstName": "Maxime",
      "lastName": "Gibbs",
      "email": "DHarrington@ac.org",
      "address": {
        "streetAddress": "9308 Amet Dr",
        "city": "Sin City",
        "state": "MA",
        "zip": "68408"
      },
      "phoneNumber": "(617)782-2951",
      "role": 1
    },
    {
      "id": 50,
      "username": "DFlint",
      "password": "0FEfesFN",
      "firstName": "Sharful",
      "lastName": "Espinosa",
      "email": "HDavid@tortor.org",
      "address": {
        "streetAddress": "1545 Tortor Ave",
        "city": "Streamwood",
        "state": "AZ",
        "zip": "94934"
      },
      "phoneNumber": "(151)689-2076",
      "role": 4
    }
  ]
}